City,Cloudiness,Country,Date,Humidity,Lat,Lng,Max Temp,Wind Speed
ribeira grande,40,PT,1552597200,72,38.52,-28.7,59,14.99
beloha,0,MG,1552602316,78,-25.17,45.06,71.93,12.48
mahebourg,20,MU,1552602244,88,-20.41,57.7,73.4,5.82
rikitea,100,PF,1552602316,100,-23.12,-134.97,75.44,18.75
pisco,0,PE,1552600800,30,-13.71,-76.2,71.6,20.8
santa vitoria do palmar,92,BR,1552602317,84,-33.52,-53.37,72.52,13.27
samusu,92,BR,1552602317,84,-33.52,-53.37,72.52,13.27
cap malheureux,20,MU,1552602244,88,-19.98,57.61,73.4,5.82
macaboboni,20,MU,1552602244,88,-19.98,57.61,73.4,5.82
katsuura,20,JP,1552598400,80,33.93,134.5,37.4,10.29
castro,0,CL,1552600800,63,-42.48,-73.76,60.8,5.82
sassandra,0,CI,1552602321,96,4.95,-6.09,84.22,9.57
sur,12,OM,1552602322,100,22.57,59.53,68.96,12.03
saldanha,0,PT,1552602322,77,41.42,-6.55,38.5,3.09
puri,20,ID,1552597200,100,-7.54,112.45,77,5.82
ahipara,80,NZ,1552601855,93,-35.17,173.16,73.99,1.01
cape town,0,ZA,1552602064,73,-33.93,18.42,70,5.82
cabo san lucas,5,MX,1552602008,46,22.89,-109.91,78.01,2.24
bluff,20,AU,1552602324,85,-23.58,149.07,72.38,5.77
tasiilaq,80,GL,1552600200,79,65.61,-37.64,23,5.82
hovd,75,NO,1552602302,100,63.83,10.7,37.99,8.05
vaini,0,IN,1552602325,71,15.34,74.49,66.85,2.19
karamea,0,IN,1552602325,71,15.34,74.49,66.85,2.19
longyearbyen,40,NO,1552600200,77,78.22,15.63,3.2,4.7
taoudenni,0,ML,1552602325,19,22.68,-3.98,65.09,7.23
punta arenas,0,CL,1552601599,58,-53.16,-70.91,59,11.41
belushya guba,0,CL,1552601599,58,-53.16,-70.91,59,11.41
ushuaia,40,AR,1552600800,51,-54.81,-68.31,59,5.82
avarua,64,CK,1552599000,70,-21.21,-159.78,84.2,20.8
winona,90,CA,1552602072,93,43.21,-79.65,57.2,8.05
roura,75,GF,1552600800,88,4.73,-52.33,78.8,3.36
tuktoyaktuk,75,CA,1552600800,76,69.44,-133.03,-7.61,20.8
ostrovnoy,0,RU,1552602326,84,68.05,39.51,17.66,19.98
alice town,20,BS,1552602326,100,25.72,-79.3,75.94,17.29
morondava,8,MG,1552602326,100,-20.3,44.28,78.59,4.32
georgetown,40,GY,1552600800,69,6.8,-58.16,84.2,9.17
nanortalik,0,GL,1552602327,100,60.14,-45.24,22.43,32.06
barrow,20,AR,1552602327,69,-38.31,-60.23,70.54,13.27
jamestown,0,AU,1552602328,80,-33.21,138.6,43.31,4.43
samarai,80,PG,1552602329,100,-10.62,150.67,77.29,19.53
puerto ayora,0,EC,1552601706,74,-0.74,-90.35,80.6,10.29
isangel,40,VU,1552597200,83,-19.55,169.27,82.4,6.22
saint george,90,GR,1552596600,93,39.45,22.34,48.2,4.7
el balyana,90,GR,1552596600,93,39.45,22.34,48.2,4.7
nemuro,0,JP,1552602330,100,43.32,145.57,29.32,12.48
hermanus,0,ZA,1552601826,84,-34.42,19.24,70,14
atasu,0,KZ,1552602331,67,48.68,71.64,25.04,10.47
trenggalek,0,ID,1552602331,93,-8.05,111.71,65.99,2.64
grindavik,75,IS,1552601795,100,63.84,-22.43,33.01,6.93
lebu,20,ET,1552600800,63,8.96,38.73,60.8,2.24
karaul,20,ET,1552600800,63,8.96,38.73,60.8,2.24
busselton,0,AU,1552602308,49,-33.64,115.35,62.01,11.81
mataura,0,NZ,1552602006,84,-46.19,168.86,55,3
taolanaro,0,NZ,1552602006,84,-46.19,168.86,55,3
klaksvik,92,FO,1552600200,100,62.23,-6.59,35.6,2.53
new norfolk,20,AU,1552602315,67,-42.78,147.06,62.01,8.05
yulara,90,AU,1552600800,39,-25.24,130.99,80.6,8.05
chipinge,92,ZW,1552602335,99,-20.19,32.62,70.58,14.5
nuuk,0,GL,1552600367,60,64.17,-51.74,8.01,17.22
los llanos de aridane,0,ES,1552601835,72,28.66,-17.92,64.4,8.05
nelson bay,75,AU,1552602129,78,-32.72,152.14,71.6,10.29
dingle,0,PH,1552602336,86,11,122.67,73.15,11.14
chisinau,90,MD,1552602323,74,47.01,28.86,39,5.82
bajil,0,ES,1552602336,57,38.23,-2.07,46.19,7
kambia,0,SL,1552602336,83,9.13,-12.92,82.15,11.59
jiaocheng,92,CN,1552602336,97,24.68,116.14,56.9,2.19
arlit,68,NE,1552602336,42,18.74,7.39,76.7,5.77
nikolskoye,20,RU,1552602335,90,59.7,30.79,32,11.18
kapaa,40,US,1552602210,65,22.08,-159.32,78.8,10.29
khatanga,48,RU,1552602337,68,71.98,102.47,4.61,9.8
hilo,75,US,1552602321,65,19.71,-155.08,77,11.41
skagastrond,75,US,1552602321,65,19.71,-155.08,77,11.41
hambantota,0,LK,1552597800,100,6.12,81.12,73.4,2.24
baker city,1,US,1552601806,52,44.77,-117.83,42.8,8.05
aykhal,80,RU,1552602337,79,65.95,111.51,8.84,4.43
ballina,92,IE,1552602124,93,54.11,-9.15,51.01,14
atuona,68,PF,1552602338,100,-9.8,-139.03,80.66,13.27
fagersta,12,SE,1552602316,100,60,15.79,28.4,3.36
norman wells,75,CA,1552600800,66,65.28,-126.83,10.4,2.24
kodiak,90,US,1552602330,80,39.95,-94.76,39.99,18.34
hobart,20,AU,1552602255,67,-42.88,147.33,62.01,8.05
ulaanbaatar,40,MN,1552600800,72,47.92,106.92,12.2,2.24
ngukurr,40,MN,1552600800,72,47.92,106.92,12.2,2.24
praya,75,ID,1552600800,94,-8.71,116.27,77,6.33
qaanaaq,24,GL,1552602339,100,77.48,-69.36,-12.09,8.01
lolua,24,GL,1552602339,100,77.48,-69.36,-12.09,8.01
kholm,88,RU,1552602340,88,57.15,31.18,37.28,16.51
albany,90,US,1552602060,43,42.65,-73.75,57.2,10.29
saskylakh,12,RU,1552602340,57,71.97,114.09,-20.01,10.47
ornskoldsvik,90,SE,1552600200,96,63.29,18.72,32,4.7
mosquera,75,CO,1552600800,77,4.71,-74.23,62.6,6.93
dargaville,64,NZ,1552602340,89,-35.94,173.86,66.98,5.44
san policarpo,0,PH,1552602340,96,12.18,125.51,75.4,6.44
atar,0,MR,1552602341,14,20.52,-13.05,72.29,8.46
yellowknife,20,CA,1552602177,57,62.45,-114.38,19.99,11.41
bredasdorp,64,ZA,1552601826,88,-34.53,20.04,70,11.41
illoqqortoormiut,64,ZA,1552601826,88,-34.53,20.04,70,11.41
gobabis,0,NA,1552602341,39,-22.45,18.97,66.62,7.23
byron bay,40,AU,1552602102,88,-28.65,153.62,78.8,5.82
butaritari,76,KI,1552602341,100,3.07,172.79,80.57,10.25
victoria,75,BN,1552600800,94,5.28,115.24,77,7.78
kamenskoye,75,BN,1552600800,94,5.28,115.24,77,7.78
sentyabrskiy,75,BN,1552600800,94,5.28,115.24,77,7.78
eureka,1,US,1552602309,62,40.8,-124.16,55.99,16.11
aljezur,0,PT,1552602128,52,37.31,-8.8,61,3
inirida,88,CO,1552602344,92,3.87,-67.92,75.49,2.42
tucuma,88,CO,1552602344,92,3.87,-67.92,75.49,2.42
dikson,80,RU,1552602345,100,73.51,80.55,4.97,18.19
plettenberg bay,88,ZA,1552602345,100,-34.05,23.37,68.02,9.8
berlevag,75,NO,1552600200,79,70.86,29.09,26.6,16.11
ponta do sol,24,BR,1552602348,88,-20.63,-46,76.16,2.19
hamilton,75,BM,1552601792,55,32.3,-64.78,62.6,9.17
fevralsk,75,BM,1552601792,55,32.3,-64.78,62.6,9.17
agadez,48,NE,1552602350,17,16.97,7.99,80.75,13.82
port elizabeth,1,US,1552602344,66,39.31,-74.98,66.99,18.34
partapur,32,IN,1552602350,49,23.59,74.18,54.97,6.78
mirpur bathoro,32,IN,1552602350,49,23.59,74.18,54.97,6.78
avera,40,US,1552602326,47,33.19,-82.53,78.8,9.17
bandar penggaram,40,US,1552602326,47,33.19,-82.53,78.8,9.17
thompson,90,CA,1552597200,62,55.74,-97.86,24.8,10.29
elizabeth city,1,US,1552602050,52,36.3,-76.22,72,13.87
olafsvik,1,US,1552602050,52,36.3,-76.22,72,13.87
namie,20,JP,1552601854,86,37.52,140.86,37.99,3.36
solnechnyy,48,RU,1552602353,65,50.72,136.64,10.6,4.76
arraial do cabo,40,BR,1552597200,79,-22.97,-42.02,84.2,2.24
tautira,40,PF,1552602195,62,-17.73,-149.15,87.8,6.93
bazaliya,24,UA,1552602353,88,49.71,26.47,32.92,8.01
cidreira,0,BR,1552602354,73,-30.17,-50.22,75.85,9.24
port lincoln,44,AU,1552602355,100,-34.72,135.86,59.29,7.67
curaca,64,BR,1552602079,70,-8.99,-39.91,83.18,8.23
constitucion,0,MX,1552602015,11,23.99,-104.67,78.01,7
airai,64,TL,1552602355,91,-8.93,125.41,68.47,1.63
saint-joseph,0,FR,1552602313,54,43.56,6.97,57.2,4.7
casabianca,75,CO,1552600800,100,5.08,-75.12,60.8,3.36
marawi,24,PH,1552601713,89,8,124.29,73,1.01
san alejo,0,SV,1552596600,32,13.43,-87.96,95,11.41
upernavik,64,GL,1552602359,100,72.79,-56.15,-0.21,2.19
hasaki,20,JP,1552601976,69,35.73,140.83,35.6,3.36
torbay,75,CA,1552602200,64,47.66,-52.73,34,11.41
east london,80,ZA,1552602360,100,-33.02,27.91,73.64,5.55
virtsu,90,EE,1552602304,100,58.57,23.51,36,10.29
havelock,1,US,1552602221,60,34.88,-76.9,69.8,14.99
coquimbo,40,CL,1552600800,82,-29.95,-71.34,62.6,9.17
iracoubo,92,GF,1552602361,86,5.48,-53.21,77.78,4.54
champerico,5,MX,1552596600,30,16.38,-93.6,96.8,12.75
port hardy,75,CA,1552598700,81,50.7,-127.42,44.6,14.99
port pirie,0,AU,1552600800,68,-33.18,138.01,64.4,10.29
podosinovets,0,RU,1552602362,77,60.28,47.06,10.87,2.42
simbahan,0,PH,1552602362,98,6.3,120.58,81.47,14.38
port alfred,88,ZA,1552602300,97,-33.59,26.89,69.01,4
makakilo city,75,US,1552602307,61,21.35,-158.09,79,10.29
saint-philippe,90,CA,1552602326,89,45.36,-73.48,48,13.87
sitka,48,US,1552601848,46,37.17,-99.65,45,28.01
mount isa,0,AU,1552600800,24,-20.73,139.49,80.6,8.05
angoram,76,PG,1552602362,100,-4.06,144.07,73.69,2.08
tumannyy,76,PG,1552602362,100,-4.06,144.07,73.69,2.08
aklavik,90,CA,1552600800,71,68.22,-135.01,5,12.75
barentsburg,90,CA,1552600800,71,68.22,-135.01,5,12.75
ketchikan,75,US,1552596960,81,55.34,-131.65,42.8,5.82
kalanguy,36,RU,1552602363,59,51.01,116.52,-0.16,5.44
salinopolis,24,BR,1552602363,99,-0.61,-47.36,80.17,5.21
ancud,0,CL,1552600800,63,-41.87,-73.83,60.8,5.82
luderitz,12,NA,1552602244,90,-26.65,15.16,60.95,13.04
mehamn,40,NO,1552600200,85,71.03,27.85,28.4,17.22
cayenne,75,GF,1552600800,88,4.94,-52.33,78.8,3.36
souillac,90,FR,1552602344,93,45.6,-0.6,51.8,13.87
kaitangata,0,NZ,1552602312,68,-46.28,169.85,59,5.01
kindu,32,CD,1552602364,85,-2.95,25.92,73.87,2.64
baoying,0,CN,1552602247,90,33.24,119.31,53.01,3.2
amderma,0,CN,1552602247,90,33.24,119.31,53.01,3.2
la ronge,20,CA,1552600800,65,55.1,-105.3,32,16.11
hithadhoo,0,MV,1552602364,100,-0.6,73.08,83.27,1.19
mataram,32,ID,1552602364,92,-5.32,105.06,72.2,2.64
rawannawi,32,ID,1552602364,92,-5.32,105.06,72.2,2.64
cherskiy,36,RU,1552602364,71,68.75,161.3,-24.06,2.08
severo-kurilsk,48,RU,1552602365,100,50.68,156.12,25.9,4.32
labuhan,76,ID,1552602365,95,-2.54,115.51,70.99,0.63
sayyan,12,YE,1552602365,80,15.17,44.32,49.25,3.09
tarut,0,SA,1552600800,49,26.57,50.06,69.8,17.22
pangnirtung,20,CA,1552600800,68,66.15,-65.72,-14.81,4.7
namibe,44,AO,1552602366,97,-15.19,12.15,80.12,5.77
sarankhola,24,BD,1552602367,91,22.31,89.79,74.54,3.2
acapulco,5,MX,1552596480,79,16.86,-99.88,84.2,9.17
lysyye gory,0,RU,1552602367,71,51.55,44.84,10.69,2.98
tshela,88,CD,1552602367,99,-4.99,12.94,71.17,4.76
laguna,8,MX,1552602367,40,27.52,-110.01,78.86,3.65
aranos,76,NA,1552602368,38,-24.14,19.11,76.16,3.65
faanui,32,PF,1552602368,100,-16.48,-151.75,82.15,9.01
marfino,90,RU,1552601160,80,56.07,37.56,32,6.71
pangody,0,RU,1552602369,71,65.85,74.49,3.8,11.7
roebourne,0,AU,1552602369,55,-20.77,117.15,82.19,7.56
montelibano,12,CO,1552602369,68,7.98,-75.42,89.48,4.43
mollendo,8,PE,1552602369,59,-17.03,-72.02,76.52,3.98
saurimo,12,AO,1552602369,86,-9.66,20.4,70.09,2.64
mar del plata,92,AR,1552602369,94,-46.43,-67.52,55.87,13.38
conceicao do araguaia,20,BR,1552602369,86,-8.26,-49.26,84.89,2.75
khani,90,GE,1552600800,100,41.96,42.96,48.2,5.82
yelan-kolenovskiy,56,RU,1552602371,87,51.16,41.15,23.2,8.46
henties bay,0,NA,1552600932,94,-22.12,14.28,59,3
hofn,56,IS,1552602372,100,64.25,-15.21,36.97,19.08
sambava,64,MG,1552602372,100,-14.27,50.17,79.54,11.81
aksarka,0,RU,1552602372,70,66.56,67.8,4.3,11.03
caravelas,0,BR,1552602372,100,-17.73,-39.27,83.77,18.52
christchurch,100,NZ,1552602186,93,-43.53,172.64,60.01,3.36
bolshaya sosnova,20,RU,1552602372,86,57.67,54.6,18.65,10.02
oakdale,90,US,1552602362,100,44.96,-92.97,39.2,13.87
ihosy,0,MG,1552602373,91,-22.4,46.13,62.12,3.76
chagda,0,MG,1552602373,91,-22.4,46.13,62.12,3.76
farafangana,48,MG,1552602373,100,-22.82,47.83,76.57,6.89
petropavlovsk-kamchatskiy,8,RU,1552599000,72,53.05,158.65,14,8.95
saleaula,8,RU,1552599000,72,53.05,158.65,14,8.95
sirjan,92,IR,1552602373,74,29.44,55.67,43.27,6.78
sao joao da barra,75,BR,1552600800,74,-21.64,-41.05,82.4,13.87
kahului,20,US,1552602101,61,20.89,-156.47,82.99,5.82
sharya,0,RU,1552602374,92,58.37,45.52,22.88,4.43
asau,0,RU,1552602374,92,58.37,45.52,22.88,4.43
malanje,48,AO,1552602374,95,-9.54,16.35,67.84,3.42
sakakah,48,AO,1552602374,95,-9.54,16.35,67.84,3.42
chokurdakh,68,RU,1552602249,49,70.62,147.9,-16.81,3.09
porto velho,40,BR,1552600800,74,-8.75,-63.87,78.8,4.7
leningradskiy,24,RU,1552602374,89,69.38,178.42,-15.01,6.89
bengkulu,24,RU,1552602374,89,69.38,178.42,-15.01,6.89
neftekamsk,76,RU,1552602374,87,56.1,54.26,20.81,8.79
barra patuca,68,HN,1552602375,82,15.8,-84.28,81.07,14.5
ekhabi,76,RU,1552602375,81,53.51,142.97,11.9,2.98
uribia,12,CO,1552602375,42,11.71,-72.27,90.79,19.75
attawapiskat,12,CO,1552602375,42,11.71,-72.27,90.79,19.75
hoa binh,75,VN,1552600800,68,20.81,105.34,69.8,10.29
burnie,0,AU,1552602375,100,-41.05,145.91,59.78,11.92
ampanihy,0,MG,1552602375,74,-24.69,44.75,70.45,11.92
gigmoto,88,PH,1552602375,100,13.78,124.39,75.71,6.78
lagoa,0,PT,1552602366,54,37.14,-8.45,61,5.82
ilulissat,75,GL,1552600200,65,69.22,-51.1,3.2,11.41
andenes,75,GL,1552600200,65,69.22,-51.1,3.2,11.41
ust-kamchatsk,75,GL,1552600200,65,69.22,-51.1,3.2,11.41
mayumba,92,GA,1552602377,100,-3.44,10.65,80.39,5.1
kavaratti,0,IN,1552602377,100,10.57,72.64,83.27,7.78
carnarvon,88,ZA,1552602377,57,-30.97,22.13,67.61,6.67
chuy,92,UY,1552602377,84,-33.69,-53.46,72.52,13.27
vila velha,75,BR,1552601291,83,-3.71,-38.6,81,2.24
matamba,48,CD,1552602377,89,-5.95,22.27,76.07,4.54
cedar city,90,US,1552601867,69,37.68,-113.06,37,5.82
cadillac,90,US,1552602345,100,44.25,-85.4,51.8,3.36
azimur,90,US,1552602345,100,44.25,-85.4,51.8,3.36
chapais,90,CA,1552600800,96,49.78,-74.86,33.8,13.87
senno,80,RU,1552597200,69,57.76,27.95,39.2,11.18
jiddah,80,RU,1552597200,69,57.76,27.95,39.2,11.18
upington,12,ZA,1552600800,42,-28.46,21.24,82.4,3.36
broome,32,GB,1552602374,70,52.47,1.45,48,14.99
kirakira,0,SB,1552602378,98,-10.46,161.92,84.4,5.66
aporawan,0,SB,1552602378,98,-10.46,161.92,84.4,5.66
nueve de julio,36,AR,1552602380,90,-31.67,-68.39,66.94,11.36
kavieng,56,PG,1552602380,100,-2.57,150.8,78.5,6.55
faya,0,SA,1552597200,59,18.39,42.45,62.6,9.17
esperance,20,TT,1552602306,58,10.24,-61.45,84.2,14.99
kupang,20,ID,1552599000,94,-10.16,123.6,75.2,3.36
bridgend,90,GB,1552602121,93,51.51,-3.58,52,21.92
bathsheba,20,BB,1552600800,69,13.22,-59.52,78.8,17.22
chicama,36,PE,1552602380,78,-7.84,-79.15,77.51,4.65
mahibadhoo,80,MV,1552602381,99,3.78,72.97,84.35,8.68
grand river south east,80,MV,1552602381,99,3.78,72.97,84.35,8.68
colwyn bay,76,GB,1552602360,93,53.29,-3.71,48.2,11.41
merauke,48,ID,1552602381,100,-8.49,140.4,77.06,11.03
saint-pierre,90,FR,1552602124,93,48.95,4.24,50,14.99
igarka,48,RU,1552602382,81,67.47,86.57,5.74,9.46
tigil,24,RU,1552602382,47,57.8,158.67,-16.41,2.64
sao filipe,0,CV,1552602382,78,14.9,-24.5,75.71,11.36
verkhnyaya inta,0,RU,1552602383,72,65.99,60.32,6.1,2.64
honiara,20,SB,1552602195,90,-9.43,159.96,78.14,3.09
sterling,1,US,1552602380,49,39,-77.4,73.4,16.11
dumas,0,IN,1552602383,97,21.09,72.71,74.72,14.27
thasra,0,IN,1552599000,37,22.8,73.21,66.2,2.24
bethel,90,US,1552600560,86,60.79,-161.76,28.4,14.99
rio grande,0,BR,1552599900,64,-32.03,-52.1,75.2,2.24
poum,88,MK,1552602387,95,41.28,20.71,30.8,1.07
petatlan,0,MX,1552602387,79,17.52,-101.27,83,8.68
pevek,24,RU,1552602387,78,69.7,170.27,-25.99,1.41
kangaatsiaq,12,GL,1552602387,100,68.31,-53.46,3.44,4.54
college,1,US,1552602348,41,64.86,-147.8,39.2,5.82
xining,68,CN,1552602388,86,36.62,101.77,15.19,1.52
bairiki,68,CN,1552602388,86,36.62,101.77,15.19,1.52
machala,75,EC,1552600800,66,-3.26,-79.96,89.6,5.82
victor harbor,20,AU,1552602208,63,-35.55,138.62,64.4,12.75
nador,0,MA,1552600800,62,35.17,-2.93,59,2.24
puerto leguizamo,80,CO,1552602388,94,-0.19,-74.78,75.26,3.42
fairbanks,1,US,1552602050,41,64.84,-147.72,39.2,5.82
shunyi,0,CN,1552602150,30,40.13,116.65,45,8.95
olinda,75,EC,1552602349,79,-2.03,-79.75,84.99,3.36
namatanai,92,PG,1552602389,100,-3.66,152.44,77.42,7.78
urgut,32,UZ,1552599000,32,39.41,67.25,55.4,11.41
hami,0,CN,1552602390,53,42.84,93.51,30.35,5.66
lavrentiya,68,RU,1552602390,99,65.58,-170.99,20.9,28.03
richards bay,12,ZA,1552602390,98,-28.77,32.06,70.27,1.86
orlik,88,RU,1552602390,76,52.51,99.83,24.95,4.88
egvekinot,76,RU,1552602185,76,66.32,-179.17,-5.02,7
abu samrah,0,SY,1552602390,79,35.3,37.18,50.65,12.93
uvalde,1,US,1552602327,22,29.21,-99.79,80.6,10.29
cherdakly,0,RU,1552597200,62,54.36,48.84,21.2,6.71
rundu,0,NA,1552602391,44,-17.91,19.77,73.37,8.68
la linea,0,MX,1552602316,52,26.86,-109.64,81,7
topolobampo,0,MX,1552602016,45,25.6,-109.05,84,4
rocky mountain house,32,CA,1552602201,44,52.38,-114.92,37.82,4.21
vila franca do campo,75,PT,1552602333,76,37.72,-25.43,57.2,11.41
lubango,56,AO,1552602393,78,-14.92,13.49,68.06,1.19
one hundred mile house,56,AO,1552602393,78,-14.92,13.49,68.06,1.19
vestbygda,56,AO,1552602393,78,-14.92,13.49,68.06,1.19
ust-ilimsk,88,RU,1552602394,75,57.96,102.73,30.71,8.57
linxia,8,CN,1552602213,75,35.6,103.21,14.24,2.08
caxias,0,BR,1552600800,83,-4.87,-43.35,82.4,3.36
krutinka,76,RU,1552602395,89,56.01,71.51,35.12,16.84
marv dasht,76,RU,1552602395,89,56.01,71.51,35.12,16.84
pavlovskiy,44,RU,1552599000,93,45.07,37.77,39.2,6.71
guerrero negro,0,MX,1552602395,61,27.97,-114.04,66.62,19.08
provideniya,75,RU,1552599000,79,64.42,-173.23,21.2,26.84
eydhafushi,8,MV,1552602352,98,5.1,73.07,83.9,8.79
chamrajnagar,20,IN,1552602396,54,11.92,76.95,68.47,5.88
puerto narino,75,CO,1552600800,74,-3.77,-70.38,87.8,3.36
nyurba,88,RU,1552602396,74,63.29,118.35,11.54,5.1
grand-santi,76,GF,1552602396,86,4.27,-54.38,78.64,2.42
dori,0,BF,1552602396,37,14.03,-0.03,78.41,4.99
portland,75,US,1552601956,35,45.52,-122.67,59,4.7
northam,75,GB,1552602390,93,51.04,-4.21,53.6,19.46
axim,12,GH,1552602396,96,4.87,-2.24,84.08,8.79
broken hill,0,AU,1552597200,37,-31.97,141.45,55.4,6.93
inhambane,92,MZ,1552602397,89,-23.87,35.38,80.66,17.29
abbeville,32,FR,1552602313,81,50.11,1.83,51.01,9.17
shingu,0,JP,1552602397,100,33.72,135.99,47.32,6.67
narsaq,20,GL,1552600200,73,60.91,-46.05,21.2,3.36
saint-francois,90,FR,1552601733,93,46.42,3.91,48.2,13.87
sinnamary,92,GF,1552602397,100,5.38,-52.96,78.23,6.44
nazca,24,PE,1552602397,59,-14.83,-74.94,79.04,3.2
takoradi,0,GH,1552602398,98,4.89,-1.75,83.63,7.23
georgiyevka,56,RU,1552602398,88,52.25,40.45,23.74,10.13
port blair,0,IN,1552602351,100,11.67,92.75,80.3,2.42
tamandare,32,BR,1552602399,66,-8.28,-70.75,88,3.76
padang,20,ID,1552597200,94,-0.92,100.36,75.2,1.12
palabuhanratu,20,ID,1552597200,94,-0.92,100.36,75.2,1.12
vaitupu,20,ID,1552597200,94,-0.92,100.36,75.2,1.12
meulaboh,48,ID,1552602400,100,4.14,96.13,77.74,5.77
mount gambier,90,AU,1552597200,100,-37.83,140.78,55.4,6.93
pozo colorado,76,PY,1552602400,98,-23.49,-58.8,74.59,11.7
lata,92,IN,1552602400,100,30.78,78.62,35.84,0.74
soe,90,EE,1552602184,86,57.91,26.05,37.4,9.17
vestmanna,92,FO,1552600200,100,62.16,-7.17,35.6,4.43
zaoyang,56,CN,1552602401,55,32.12,112.76,39.67,5.99
kruisfontein,92,ZA,1552602401,88,-34,24.73,64.6,5.99
luanda,40,AO,1552600800,65,-8.83,13.24,82.4,5.82
vardo,1,US,1552602071,38,39.62,-77.74,73.4,20.8
saint anthony,20,US,1552602108,43,43.97,-111.68,39.99,4.7
fez,0,MA,1552600800,57,34.03,-5.02,55.4,4.7
lorengau,24,PG,1552602401,100,-2.02,147.27,82.37,16.06
kelme,75,LT,1552600200,100,55.63,22.93,33.8,9.17
mareeba,68,AU,1552602018,74,-16.99,145.42,82,10.29
kushiro,75,JP,1552599900,73,43.11,144.15,26.6,2.24
marsh harbour,0,BS,1552602403,100,26.54,-77.06,74.32,16.28
sola,90,FI,1552602126,86,62.78,29.36,32,10.29
tungkang,90,FI,1552602126,86,62.78,29.36,32,10.29
emba,40,CY,1552601767,72,34.81,32.42,60.8,11.41
gaeta,20,IT,1552602318,93,41.22,13.56,55,5.82
miraflores,68,CO,1552602404,86,5.2,-73.14,60.14,2.19
santa isabel,75,CO,1552600800,100,4.71,-75.1,77,3.36
aksay,20,RU,1552599000,69,47.27,39.86,37.4,17.9
abu jubayhah,20,RU,1552599000,69,47.27,39.86,37.4,17.9
tiksi,0,RU,1552602406,65,71.64,128.87,-22.62,2.75
utashinai,75,JP,1552599600,92,43.49,142.04,30.2,4.7
nguiu,75,JP,1552599600,92,43.49,142.04,30.2,4.7
tiarei,40,PF,1552602195,62,-17.53,-149.33,87.8,6.93
poronaysk,48,RU,1552602408,90,49.22,143.1,14.69,2.64
cabedelo,20,BR,1552600800,83,-6.97,-34.84,80.6,6.93
fare,64,PF,1552602409,100,-16.7,-151.02,82.1,11.25
bambous virieux,20,MU,1552602244,88,-20.34,57.76,73.4,5.82
crixas,0,BR,1552602409,85,-14.55,-49.97,84.8,2.64
manokwari,80,ID,1552602335,100,-0.87,134.08,80.12,15.73
lander,90,US,1552601817,40,42.83,-108.73,34,5.82
clyde river,75,CA,1552600800,83,70.47,-68.59,-4.01,10.29
manono,68,CD,1552602411,90,-7.3,27.4,73.28,3.09
flinders,75,AU,1552602361,77,-34.58,150.85,71.01,14.99
senanga,92,ZM,1552602411,41,-16.1,23.3,78.32,6.44
buraydah,75,SA,1552597200,51,26.33,43.97,60.8,9.17
znamenskoye,80,RU,1552602411,94,57.13,73.82,33.41,12.48
salamanca,0,ES,1552601547,64,40.97,-5.66,39.2,2.19
tilichiki,0,RU,1552602413,32,60.47,166.1,-22.71,3.65
maldonado,75,UY,1552600800,83,-34.91,-54.96,71.6,11.41
beni,0,CD,1552602414,88,0.49,29.47,66.26,3.2
tzimol,12,MX,1552602414,46,16.18,-92.18,88.54,3.98
methoni,40,GR,1552602344,93,36.82,21.7,48.99,19.86
pointe michel,20,DM,1552600800,61,15.25,-61.38,80.6,3.36
villa carlos paz,40,AR,1552600800,78,-31.42,-64.5,73.4,12.75
merritt island,20,US,1552602390,54,28.54,-80.67,81,16.11
labutta,20,US,1552602390,54,28.54,-80.67,81,16.11
turinskaya sloboda,92,RU,1552602416,93,57.62,64.39,29,12.48
praia da vitoria,75,PT,1552601772,76,38.73,-27.07,57.99,11.36
calabozo,32,VE,1552602416,34,8.92,-67.43,96.86,14.61
cotonou,20,BJ,1552597200,84,6.37,2.43,86,12.75
sol-iletsk,0,RU,1552602416,88,51.16,55,23.92,8.23
ulaangom,0,MN,1552602417,57,49.98,92.07,1.1,0.96
sisimiut,0,GL,1552602405,72,66.94,-53.67,-7.09,1.74
uhlove,64,UA,1552602417,100,44.82,33.6,37.55,9.69
laurencekirk,56,GB,1552602363,66,56.84,-2.46,44.6,12.75
iralaya,40,HN,1552600800,70,15,-83.23,84.2,5.82
iqaluit,5,CA,1552602174,70,63.75,-68.52,-2.01,2.24
zhigansk,0,RU,1552602420,59,66.77,123.37,-12.54,2.42
moree,32,AU,1552601752,53,-29.46,149.84,75.99,6.93
villazon,32,AU,1552601752,53,-29.46,149.84,75.99,6.93
tabiauea,32,AU,1552601752,53,-29.46,149.84,75.99,6.93
lodja,24,CD,1552602420,84,-3.52,23.6,76.3,0.63
marzuq,0,YE,1552602420,87,14.4,46.47,55.37,2.98
havre-saint-pierre,90,CA,1552600800,80,50.23,-63.6,30.2,6.93
chernyshevskiy,92,RU,1552602421,89,63.01,112.47,19.55,3.42
lasa,40,CY,1552601767,72,34.92,32.53,60.8,11.41
ngunguru,76,NZ,1552601284,73,-35.62,174.5,70,5.99
oparino,12,RU,1552602422,88,59.85,48.28,22.84,1.97
cazaje,12,RU,1552602422,88,59.85,48.28,22.84,1.97
la macarena,92,CO,1552602422,74,2.18,-73.79,80.62,2.08
fortuna,0,ES,1552602381,66,38.18,-1.13,55,5.82
najran,0,SA,1552597200,36,17.54,44.22,80.6,18.34
hakvik,0,SA,1552597200,36,17.54,44.22,80.6,18.34
korla,0,SA,1552597200,36,17.54,44.22,80.6,18.34
beringovskiy,88,RU,1552602424,88,63.05,179.32,9.47,28.92
batsfjord,75,NO,1552600200,85,70.63,29.72,26.6,23.04
rungata,75,NO,1552600200,85,70.63,29.72,26.6,23.04
mabaruma,24,GY,1552602424,74,8.2,-59.78,81.83,8.34
husavik,80,CA,1552602341,69,50.56,-96.99,32,21
flagstaff,90,US,1552602329,50,35.2,-111.65,55,14.99
moindou,0,NC,1552600800,78,-21.69,165.68,80.6,4.7
graaff-reinet,88,ZA,1552602424,72,-32.25,24.53,63.52,3.98
sokna,90,NO,1552602340,86,60.24,9.92,33.01,2.24
palana,20,RU,1552602425,43,59.08,159.95,-15.01,2.75
colares,0,PT,1552602424,71,38.8,-9.45,59,11.41
ayer itam,0,PT,1552602424,71,38.8,-9.45,59,11.41
san patricio,0,PY,1552602425,68,-26.98,-56.83,79.67,3.42
guara,75,CU,1552602195,65,22.81,-82.2,82.4,8.05
tual,76,ID,1552602425,100,-5.67,132.75,80.35,16.28
ko samui,20,TH,1552600800,78,9.54,99.94,82.4,9.17
omsukchan,32,RU,1552602426,58,62.53,155.8,-21.94,2.64
windhoek,88,NA,1552600825,93,-22.57,17.08,66,2.24
malindi,56,KE,1552602426,89,-3.22,40.12,78.77,8.01
san vicente,20,SV,1552600200,52,13.64,-88.78,87.8,8.05
dolbeau,20,SV,1552600200,52,13.64,-88.78,87.8,8.05
cairns,92,AU,1552602018,74,-16.92,145.77,82,10.29
okakarara,12,NA,1552602428,63,-20.59,17.46,69.86,3.53
pappayiannis,44,GR,1552602428,100,40.83,21.5,31.84,2.19
atbasar,68,KZ,1552602428,88,51.81,68.36,38.72,16.17
dunedin,12,NZ,1552602222,84,-45.87,170.5,60.01,5.99
kapit,88,MY,1552602429,98,2.02,112.94,71.84,2.08
angoche,8,MZ,1552602429,100,-16.23,39.91,82.64,15.95
port-gentil,20,GA,1552600800,94,-0.72,8.78,78.8,2.24
port hawkesbury,1,CA,1552602360,38,45.62,-61.36,41,4.7
yarke pole,76,UA,1552602429,96,45.61,34.32,34.31,4.76
rio tuba,0,PH,1552602429,93,8.51,117.43,78.95,7.56
toliary,0,PH,1552602429,93,8.51,117.43,78.95,7.56
raudeberg,80,NO,1552602303,80,61.99,5.14,39.2,6.93
acarau,80,NO,1552602303,80,61.99,5.14,39.2,6.93
lompoc,1,US,1552602356,34,34.64,-120.46,66.99,6.93
oranjemund,88,ZA,1552602432,94,-28.55,16.43,63.74,7.34
cabinda,92,AO,1552602432,100,-5.56,12.19,78.32,0.74
suleja,0,NG,1552597200,42,9.18,7.18,86,2.24
talnakh,48,RU,1552602432,86,69.49,88.39,4.16,11.25
fayaoue,56,NC,1552602433,99,-20.65,166.53,80.35,2.64
yumen,0,CN,1552602433,56,40.29,97.04,22.3,5.55
tyazhinskiy,44,RU,1552602433,86,56.11,88.52,34.72,7.11
cartagena,0,ES,1552602178,81,37.63,-1,55,3.36
okhotsk,76,RU,1552602434,99,59.36,143.24,7.27,3.65
grand centre,76,RU,1552602434,99,59.36,143.24,7.27,3.65
balikpapan,20,ID,1552599000,94,-1.24,116.86,77,5.82
mayo,75,CA,1552600800,41,63.59,-135.9,41,4.7
las choapas,0,MX,1552602434,53,17.91,-94.09,95.15,5.99
nabire,48,ID,1552602434,95,-3.36,135.5,65.54,0.96
jinka,92,ET,1552602434,47,5.79,36.57,72.02,1.97
kendari,24,ID,1552602434,91,-3.99,122.52,72.47,3.31
fort nelson,75,CA,1552600800,55,58.81,-122.69,33.8,2.24
moa,0,CU,1552602435,50,20.66,-74.95,80.3,5.55
xiaoweizhai,92,CN,1552602435,98,26.23,107.51,45.11,4.09
wittmund,75,DE,1552602426,75,53.58,7.78,46.4,27.51
tura,92,IN,1552602435,77,25.52,90.21,64.64,2.19
juli,32,PE,1552602435,100,-16.21,-69.46,52.09,6.67
ixtapa,8,MX,1552602313,81,20.71,-105.21,78.01,5.99
paita,75,PE,1552600800,290,-5.09,-81.11,62.6,9.17
gazojak,0,TM,1552602436,74,41.19,61.4,45.52,2.75
rabo de peixe,75,PT,1552602393,76,37.8,-25.58,57.2,11.41
george town,75,MY,1552600800,88,5.42,100.33,80.6,1.97
balkhash,0,KZ,1552602436,78,46.84,74.98,18.02,2.75
enshi,76,CN,1552602436,94,30.29,109.48,43.45,2.19
walvis bay,0,NA,1552600932,87,-22.95,14.51,59,6.93
tosya,32,TR,1552602436,86,41.02,34.04,31.75,1.41
pervomayskoye,36,RU,1552602437,92,57.07,86.23,32.02,10.02
shakawe,0,BW,1552602437,44,-18.36,21.84,72.47,6.22
seymchan,12,RU,1552602440,43,62.93,152.39,-28.56,2.19
bilma,0,NE,1552602440,16,18.69,12.92,67.25,8.34
bilibino,56,RU,1552602442,49,68.06,166.44,-18.12,2.75
le port,0,FR,1552602315,66,42.87,1.37,48.99,8.01
sai buri,0,TH,1552602444,86,6.7,101.62,73.1,2.86
ilula,20,TZ,1552602444,88,-7.68,36.04,56.59,1.41
nishihara,1,JP,1552602303,64,35.74,139.53,48,2.19
dryden,90,CA,1552600800,86,49.79,-92.84,30.2,17.22
pacific grove,1,US,1552602430,25,36.62,-121.92,68,11.41
gongzhuling,0,CN,1552602445,71,43.5,124.81,16.22,4.21
sumbawa,0,CN,1552602445,71,43.5,124.81,16.22,4.21
svetlyy,0,CN,1552602445,71,43.5,124.81,16.22,4.21
gambo,0,NG,1552602445,25,11.96,9.63,80.3,10.25
santa isabel do rio negro,12,BR,1552602445,86,-0.41,-65.02,81.25,6.44
khagrachari,12,BR,1552602445,86,-0.41,-65.02,81.25,6.44
vorobyevka,64,RU,1552602445,82,50.65,40.92,25.58,9.46
tashara,44,RU,1552602445,93,55.52,83.51,30.35,9.01
inongo,44,CD,1552602447,90,-1.93,18.29,79,3.31
boa vista,20,BR,1552600800,38,2.82,-60.67,93.2,9.17
jabiru,20,BR,1552600800,38,2.82,-60.67,93.2,9.17
jalu,0,LY,1552602450,46,29.03,21.55,51.41,2.86
yining,88,CN,1552602452,93,29.04,114.56,46.24,2.3
groton,20,US,1552602425,49,42.61,-71.57,50,6.93
businga,68,CD,1552602452,93,3.34,20.89,71.66,2.75
leh,76,IN,1552602452,73,34.16,77.58,-3.09,1.52
muros,75,ES,1552602446,75,42.77,-9.06,52,2.24
storsteinnes,75,NO,1552601911,92,69.24,19.23,26.6,6.93
benguela,56,AO,1552602454,100,-12.58,13.4,80.3,4.99
coahuayana,0,MX,1552602454,24,18.62,-100.35,87.77,2.98
gojra,24,PK,1552602387,92,31.15,72.69,55.69,3.2
pelham,90,US,1552602290,69,33.29,-86.81,78.8,10.29
bol,0,TD,1552602454,18,13.47,14.72,81.7,13.04
nizhneyansk,0,TD,1552602454,18,13.47,14.72,81.7,13.04
gisborne,36,NZ,1552602008,73,-38.66,178.02,78.01,2.42
banda aceh,20,ID,1552602454,98,5.56,95.32,73.28,2.3
codrington,40,AU,1552602406,88,-28.95,153.24,77,5.82
palmer,75,US,1552602394,65,61.6,-149.11,44.01,20.8
belciugatele,75,RO,1552602452,81,44.49,26.43,46,4.7
carauari,8,BR,1552602455,41,-4.88,-66.9,95.74,7.67
sturgis,0,US,1552602401,54,44.41,-103.51,36,19.46
capreol,90,CA,1552601810,86,46.71,-80.92,43,11.41
buchanan,20,LR,1552600800,94,5.88,-10.05,80.6,6.89
khorramshahr,75,IR,1552597200,63,30.43,48.18,66.2,13.87
camara de lobos,75,PT,1552602108,63,32.63,-16.97,60.8,6.93
macas,75,EC,1552600800,94,-2.3,-78.12,73.4,12.75
kailua,75,US,1552602307,83,21.39,-157.74,79,9.17
bayonet point,1,US,1552602393,45,28.33,-82.68,86,6.93
chegdomyn,88,RU,1552602457,85,51.13,133.04,17.62,2.86
verkhnevilyuysk,44,RU,1552602457,72,63.45,120.31,0.65,3.65
florianopolis,75,BR,1552602307,88,-27.6,-48.55,78.01,5.82
ust-omchug,24,RU,1552602459,29,61.13,149.63,-22.62,2.42
teneguiban,24,RU,1552602459,29,61.13,149.63,-22.62,2.42
artyk,24,RU,1552602459,29,61.13,149.63,-22.62,2.42
prainha,32,BR,1552602459,86,-1.8,-53.48,79.76,3.2
moranbah,0,AU,1552602459,93,-22,148.04,71.3,3.87
bowen,88,AU,1552602411,94,-20.01,148.25,82.99,4.65
imbituba,75,BR,1552600800,88,-28.24,-48.67,75.2,5.82
nome,90,US,1552602460,35,30.04,-94.42,75.99,9.17
harbour breton,20,CA,1552602081,100,47.48,-55.8,32,12.03
kamenka,0,RU,1552602462,61,53.19,44.05,6.95,3.09
nazareno,0,MX,1552602077,10,25.4,-103.42,84.99,4
soyo,92,AO,1552602463,97,-6.13,12.37,75.53,3.2
leua,68,AO,1552602463,92,-11.65,20.45,67.52,2.42
wanxian,76,CN,1552602463,85,30.8,108.39,45.25,2.19
togur,68,RU,1552602463,94,58.36,82.83,32.74,8.79
roald,75,NO,1552602303,99,62.58,6.12,37.4,4.7
vestmannaeyjar,92,IS,1552602464,100,63.44,-20.27,35.44,9.46
trairi,32,BR,1552602464,100,-3.28,-39.27,81.34,6.22
hualmay,12,PE,1552602464,64,-11.1,-77.61,78.95,4.32
san cristobal,75,EC,1552601801,72,-0.39,-78.55,64.4,10.29
lewistown,90,US,1552602428,61,40.39,-90.15,48,34.45
mys shmidta,90,US,1552602428,61,40.39,-90.15,48,34.45
mahanje,90,US,1552602428,61,40.39,-90.15,48,34.45
pandharpur,0,IN,1552602464,34,17.68,75.33,70.72,4.99
wajima,20,JP,1552602466,86,37.4,136.9,43.49,8.34
erenhot,0,CN,1552602466,61,43.65,111.97,9.83,3.87
dzhebariki-khaya,64,RU,1552602466,79,62.22,135.8,6.05,2.86
asfi,64,RU,1552602466,79,62.22,135.8,6.05,2.86
mataro,64,RU,1552602466,79,62.22,135.8,6.05,2.86
touros,20,BR,1552600800,88,-5.2,-35.46,82.4,6.93
alyangula,0,AU,1552597200,94,-13.85,136.42,77,3.36
valdivia,0,CL,1552600800,48,-39.81,-73.25,66.2,10.29
rawson,40,AR,1552598040,82,-43.3,-65.11,60.8,23.04
edson,1,CA,1552600800,24,53.59,-116.44,42.8,2.24
carutapera,44,BR,1552602470,88,-1.2,-46.02,80.8,3.76
deputatskiy,36,RU,1552602470,50,69.3,139.9,-18.7,2.75
tiznit,0,MA,1552602470,88,29.7,-9.73,59.29,2.08
umzimvubu,0,MA,1552602470,88,29.7,-9.73,59.29,2.08
chifeng,44,CN,1552602470,63,42.27,118.96,21.85,11.7
katsina,0,NG,1552602470,25,12.99,7.6,78.77,8.68
goaigoaza,0,NG,1552602470,25,12.99,7.6,78.77,8.68
himatnagar,0,IN,1552599000,37,23.6,72.96,66.2,2.24
zalantun,0,CN,1552602471,43,48,122.72,19.73,6.22
sabaudia,0,IT,1552602425,81,41.3,13.03,51.8,4.7
aswan,0,EG,1552602471,60,24.09,32.9,52.9,2.75
oksfjord,75,NO,1552602306,68,70.24,22.35,28.4,11.41
la libertad,75,PE,1552600800,72,-16.38,-71.56,60.8,13.87
winnemucca,1,US,1552601906,28,40.97,-117.74,43,6.93
saint-marc,12,HT,1552602473,45,19.1,-72.7,86.51,3.98
bonthe,0,SL,1552602473,76,7.53,-12.5,83.5,5.99
margate,20,AU,1552602441,67,-43.03,147.26,62.01,8.05
alice springs,75,AU,1552600800,22,-23.7,133.88,77,5.82
mapiri,92,BO,1552602474,98,-15.31,-68.22,57.04,2.86
pombas,24,BR,1552602474,66,-15.9,-54.74,86.02,3.2
antalya,75,TR,1552600200,82,36.9,30.69,59,10.29
ndjole,32,GA,1552602474,92,-0.18,10.76,76.12,2.53
kasungu,8,MW,1552602474,90,-13.04,33.48,66.35,4.21
progreso,20,UY,1552602324,88,-34.68,-56.22,71.6,6.93
traverse city,90,US,1552602243,81,44.76,-85.62,51.8,8.05
pangkalanbuun,48,ID,1552602329,86,-2.68,111.62,75.94,3.2
nandi,0,KE,1552600800,59,0.19,35.1,71.6,4.7
